,City,Country,Latitude,Longitude,Temperature,Humidity,Cloudiness,Wind speed
0,bubaque,GW,11.2833,-15.8333,77.92,74,19,13.89
1,sioux lookout,CA,50.1001,-91.917,23.0,80,90,10.36
2,rikitea,PF,-23.1203,-134.9692,77.97,76,50,14.52
3,mataura,NZ,-46.1927,168.8643,60.49,76,100,1.48
4,esperance,AU,-33.8667,121.9,69.8,40,75,16.11
5,gimli,CA,50.6336,-96.9907,21.2,79,100,19.57
6,kapaa,US,22.0752,-159.319,69.8,100,75,5.75
7,cabo san lucas,MX,22.8909,-109.9124,84.2,56,40,10.36
8,punta arenas,CL,-53.15,-70.9167,69.8,49,40,20.69
9,ushuaia,AR,-54.8,-68.3,53.6,82,75,14.97
10,hobart,AU,-42.8794,147.3294,57.0,76,75,5.75
11,huainan,CN,32.6264,116.9969,41.38,79,51,7.0
12,portland,US,45.5234,-122.6762,48.2,66,75,11.5
13,siljan,NO,59.2884,9.71,25.0,82,85,1.01
14,caravelas,BR,-17.7125,-39.2481,81.09,71,98,9.42
15,san patricio,US,28.017,-97.5169,71.6,28,1,6.82
16,albany,US,42.6001,-73.9662,30.0,88,100,12.75
17,klaksvik,FO,62.2266,-6.589,33.8,93,40,8.05
18,porto novo,BJ,6.4965,2.6036,84.2,89,20,8.05
19,itamaraju,BR,-17.0392,-39.5311,81.82,65,87,9.48
20,kamaishi,JP,39.2667,141.8833,22.21,86,0,6.08
21,barranca,PE,-10.75,-77.7667,74.91,64,46,10.56
22,butaritari,KI,3.0707,172.7902,81.77,83,85,19.51
23,santa maria,BR,-29.6842,-53.8069,86.0,66,75,4.61
24,daura,NG,11.5538,11.4085,77.23,17,0,11.01
25,trincomalee,LK,8.5711,81.2335,78.66,77,100,16.53
26,hilo,US,19.7297,-155.09,75.2,60,1,4.61
27,mahebourg,MU,-20.4081,57.7,80.6,78,40,11.5
28,hermanus,ZA,-34.4187,19.2345,66.99,84,0,7.07
29,busselton,AU,-33.65,115.3333,64.99,90,11,4.0
30,vaini,TO,-21.2,-175.2,77.0,100,90,10.36
31,pevek,RU,69.7008,170.3133,9.57,91,100,10.74
32,tasiilaq,GL,65.6145,-37.6368,19.4,93,90,2.3
33,chapais,CA,49.7834,-74.8492,26.6,59,1,9.22
34,kichera,RU,55.9375,110.0997,-23.94,67,0,1.28
35,cockburn town,TC,21.4612,-71.1419,78.8,73,40,13.8
36,cape town,ZA,-33.9258,18.4232,71.01,83,0,17.27
37,bluff,NZ,-46.6,168.3333,58.6,87,100,7.54
38,lagos,NG,6.5833,3.75,82.4,83,0,3.44
39,victoria,HK,22.2855,114.1577,63.0,81,78,5.01
40,grand gaube,MU,-20.0064,57.6608,78.01,84,13,3.0
41,turayf,SA,31.6725,38.6637,55.4,50,38,27.63
42,oksfjord,NO,70.2396,22.3479,26.6,59,20,8.05
43,port alfred,ZA,-33.5906,26.891,68.0,89,0,1.01
44,sao filipe,CV,14.8961,-24.4956,73.9,71,0,9.64
45,hithadhoo,MV,-0.6,73.0833,82.06,73,44,4.65
46,tuktoyaktuk,CA,69.4541,-133.0374,-31.0,68,20,6.91
47,sungaipenuh,ID,-2.0833,101.3833,64.06,96,94,3.31
48,ramapuram,IN,13.1167,79.2,67.26,94,2,1.57
49,isangel,VU,-19.55,169.2667,80.6,89,75,11.5
50,geraldton,AU,-28.7667,114.6,73.4,83,90,13.8
51,hovd,MN,48.0056,91.6419,4.77,85,73,1.48
52,carnarvon,AU,-24.8667,113.6333,75.2,100,40,21.85
53,margate,GB,51.3813,1.3862,51.01,82,17,5.99
54,ostrovnoy,RU,68.0531,39.5131,25.29,94,100,18.28
55,necochea,AR,-38.5473,-58.7368,72.0,56,42,5.01
56,provideniya,RU,64.3833,-173.3,7.63,91,100,15.52
57,naze,JP,28.3667,129.4833,51.3,75,2,17.02
58,kaniama,CD,-7.5667,24.1833,68.18,90,100,1.28
59,iguape,BR,-24.7081,-47.5553,82.27,80,16,9.69
60,clinton,US,42.587,-82.9199,33.8,64,75,16.11
61,bethanien,NA,-26.502,17.1583,81.23,27,0,17.4
62,jamestown,US,42.097,-79.2353,23.0,86,90,14.97
63,milos,GR,36.75,24.4333,53.6,94,100,4.61
64,mount gambier,AU,-37.8333,140.7667,57.2,77,90,8.05
65,nikolskoye,RU,59.7035,30.7861,24.8,86,90,6.71
66,canavieiras,BR,-15.675,-38.9472,78.39,88,96,7.43
67,talcahuano,CL,-36.7167,-73.1167,69.8,64,0,11.5
68,coquimbo,CL,-29.9533,-71.3436,66.2,63,20,13.8
69,rincon,US,32.296,-81.2354,52.0,37,40,20.71
70,qaanaaq,GL,77.484,-69.3632,-7.6,85,100,4.45
71,ancud,CL,-41.8697,-73.8203,69.8,56,0,9.22
72,georgetown,MY,5.4112,100.3354,82.0,89,20,4.61
73,favara,IT,37.3175,13.6623,57.2,77,0,5.75
74,puerto ayora,EC,-0.7393,-90.3518,84.2,65,0,17.27
75,skelleftea,SE,64.7507,20.9528,6.8,85,90,4.61
76,chuy,UY,-33.6971,-53.4616,80.02,68,92,8.52
77,amga,RU,60.8953,131.9608,-38.9,79,100,4.41
78,muzambinho,BR,-21.3758,-46.5256,73.4,73,75,2.17
79,saldanha,ZA,-33.0117,17.9442,69.8,60,0,11.5
80,tingi,TZ,-11.3,35.0333,65.26,94,8,3.78
81,danielskuil,ZA,-28.1887,23.5395,58.5,85,90,18.81
82,safonovo,RU,55.15,33.2167,14.56,94,100,8.52
83,maragogi,BR,-9.0122,-35.2225,80.76,72,6,12.15
84,avarua,CK,-21.2078,-159.775,82.4,78,40,9.22
85,kieta,PG,-6.2167,155.6333,80.71,81,86,10.65
86,barra da estiva,BR,-13.6261,-41.3269,77.63,64,35,8.55
87,upernavik,GL,72.7868,-56.1549,-7.58,87,100,5.7
88,jutai,BR,-5.1833,-68.9,82.58,82,96,3.44
89,whitehorse,CA,60.7161,-135.0538,-11.99,70,40,5.75
90,farnham,GB,51.2143,-0.7959,51.01,87,75,13.8
91,angatuba,BR,-23.4897,-48.4128,81.34,74,69,4.99
92,camacha,PT,33.0833,-16.3333,62.6,72,40,11.5
93,neede,NL,52.1342,6.6139,48.0,98,95,1.99
94,port elizabeth,ZA,-33.918,25.5701,69.8,83,40,9.22
95,saint-philippe,RE,-21.3585,55.7679,80.6,78,0,4.61
96,mataram,ID,-8.5833,116.1167,75.2,94,40,6.91
97,jalu,LY,29.0331,21.5482,56.21,48,10,4.9
98,kailua,US,21.4022,-157.7394,75.2,73,75,3.44
99,galle,LK,6.0367,80.217,75.4,88,75,6.02
100,surovatikha,RU,55.7652,43.8984,6.8,85,3,2.24
101,xuddur,SO,4.1213,43.8894,74.05,25,0,13.96
102,salalah,OM,17.0151,54.0924,71.6,60,0,2.3
103,castro,BR,-24.7911,-50.0119,76.1,83,62,3.96
104,san quintin,MX,30.4833,-115.95,68.47,51,67,13.0
105,high level,CA,58.5169,-117.136,-5.8,77,90,16.11
106,maarianhamina,AX,60.0973,19.9348,26.6,86,90,11.5
107,mackay,AU,-21.15,149.2,73.4,94,48,5.75
108,egvekinot,RU,66.3167,-179.1667,-1.3,93,100,12.77
109,bondoukou,CI,8.0333,-2.8,80.06,17,0,1.48
110,kinsale,IE,51.7075,-8.5306,46.99,93,40,12.66
111,barrow,US,71.2906,-156.7887,-25.6,68,1,11.5
112,alta floresta,BR,-9.8756,-56.0861,82.4,74,40,14.97
113,hualmay,PE,-11.0964,-77.6139,75.52,64,45,9.78
114,matamoros,MX,25.5333,-103.25,71.6,26,40,2.08
115,novopokrovka,UA,49.8425,36.5477,32.0,100,90,6.71
116,thompson,CA,55.7435,-97.8558,15.8,92,90,3.44
117,saskylakh,RU,71.9167,114.0833,-9.17,89,100,18.59
118,yellowknife,CA,62.456,-114.3525,-11.0,70,90,11.5
119,loralai,PK,30.3705,68.598,47.14,48,0,8.86
120,mar del plata,AR,-38.0023,-57.5575,70.0,88,90,8.05
121,ambon,ID,-3.6954,128.1814,78.8,83,40,3.44
122,khani,GE,41.9563,42.9566,41.0,70,0,5.75
123,te anau,NZ,-45.4167,167.7167,56.12,88,100,1.52
124,kalmunai,LK,7.4167,81.8167,77.45,83,100,13.15
125,bredasdorp,ZA,-34.5322,20.0403,64.4,77,0,2.3
126,saint-francois,FR,46.4154,3.9054,55.4,82,90,4.61
127,maloarkhangelsk,RU,52.4002,36.5033,13.32,96,64,8.19
128,tonantins,BR,-2.8731,-67.8022,81.7,79,100,1.57
129,avera,US,33.194,-82.5271,52.0,43,40,16.11
130,itarema,BR,-2.9248,-39.9167,82.53,67,0,16.75
131,ribeira grande,PT,38.5167,-28.7,55.4,62,40,32.21
132,camacupa,AO,-12.0167,17.4833,66.45,88,100,2.28
133,saint george,US,37.1041,-113.5841,60.8,41,75,6.91
134,labytnangi,RU,66.6572,66.4183,6.46,93,100,4.14
135,chokurdakh,RU,70.6333,147.9167,-3.95,90,88,10.38
136,warmbad,NA,-28.45,18.7333,82.63,37,0,19.3
137,siavonga,ZM,-16.5382,28.7088,77.22,81,100,4.45
138,ilhabela,BR,-23.7781,-45.3581,82.94,67,20,3.38
139,fuling,CN,29.7022,107.3919,48.54,76,52,1.5
140,raymond,US,43.9015,-70.4703,28.99,95,100,7.0
141,touros,BR,-5.1989,-35.4608,84.2,65,40,18.41
142,kavieng,PG,-2.5744,150.7967,81.36,78,100,12.06
143,cherskiy,RU,68.75,161.3,-3.23,84,0,0.98
144,port hedland,AU,-20.3167,118.5667,82.4,83,90,10.36
145,torbay,CA,47.6666,-52.7314,28.99,74,90,8.05
146,bengkulu,ID,-3.8004,102.2655,75.22,89,100,5.86
147,kristiinankaupunki,FI,62.2743,21.376,14.11,95,32,10.47
148,nanortalik,GL,60.1432,-45.2371,16.3,85,0,15.95
149,palu,ID,-0.8917,119.8707,76.14,81,100,1.88
150,zhigalovo,RU,54.8097,105.1578,-15.0,85,100,1.59
151,moerai,PF,-22.4333,-151.3333,80.37,64,66,0.49
152,talnakh,RU,69.4865,88.3972,-10.71,83,100,6.24
153,bambous virieux,MU,-20.3428,57.7575,80.6,78,40,11.5
154,ouahigouya,BF,13.5828,-2.4216,76.41,14,0,9.93
155,tuensang,IN,26.2833,94.8333,50.47,70,0,3.24
156,walvis bay,NA,-22.9575,14.5053,68.0,77,0,6.91
157,bontang,ID,0.1333,117.5,77.79,87,100,6.85
158,pisco,PE,-13.7,-76.2167,77.0,65,0,8.05
159,hasaki,JP,35.7333,140.8333,30.2,80,20,2.3
160,khatanga,RU,71.9667,102.5,-29.54,84,32,9.33
161,shingu,JP,33.7333,135.9833,36.5,77,0,9.82
162,kerrville,US,30.0474,-99.1403,63.0,22,1,12.66
163,atar,MR,20.5169,-13.0499,76.33,16,0,9.82
164,bathsheba,BB,13.2167,-59.5167,82.4,57,40,21.85
165,urumqi,CN,43.801,87.6005,15.8,86,100,6.71
166,kodiak,US,57.79,-152.4072,30.2,86,90,3.44
167,severobaykalsk,RU,55.65,109.3167,-20.54,77,11,2.77
168,vestmannaeyjar,IS,63.4427,-20.2734,35.6,75,20,32.21
169,san vicente,AR,-26.6167,-54.1333,84.69,61,68,3.83
170,seoul,KR,37.5683,126.9778,15.8,67,0,2.3
171,balkhash,KZ,46.844,74.9804,11.48,89,18,2.28
172,manuk mangkaw,PH,4.8,119.85,80.83,81,100,7.14
173,oussouye,SN,12.485,-16.5469,87.8,65,0,4.61
174,peniche,PT,39.3558,-9.3811,59.0,91,100,11.99
175,boden,SE,65.8252,21.6886,3.2,85,75,3.44
176,birjand,IR,32.8663,59.2211,32.0,40,0,4.61
177,severo-kurilsk,RU,50.6789,156.125,25.61,95,31,39.41
178,hoopstad,ZA,-27.8327,25.9083,58.1,93,100,9.04
179,koshurnikovo,RU,54.1667,93.3,-0.24,91,62,2.84
180,nampula,MZ,-15.1165,39.2666,80.6,69,0,10.36
181,benguela,AO,-12.5763,13.4055,75.87,79,100,5.19
182,mayo,US,38.8876,-76.5119,36.0,80,90,11.5
183,khor,RU,47.8861,134.9464,-24.61,83,100,12.53
184,andira,BR,-0.7385,-47.8437,84.38,65,100,8.61
185,ponta do sol,PT,32.6667,-17.1,61.0,67,78,1.99
186,wladyslawowo,PL,54.7909,18.4009,32.0,86,75,8.05
187,lebu,CL,-37.6167,-73.65,62.76,67,44,14.14
188,hamilton,US,39.1834,-84.5333,33.8,55,1,10.36
189,saint anthony,US,45.0205,-93.218,25.0,86,90,6.91
190,hervey bay,AU,-25.2986,152.8535,73.99,94,75,10.36
191,atuona,PF,-9.8,-139.0333,77.83,80,3,17.0
192,alofi,NU,-19.0595,-169.9187,80.6,89,99,6.91
193,kalinovskoye,RU,44.8635,42.9622,44.02,65,0,2.24
194,dikson,RU,73.5069,80.5464,-22.09,82,0,12.59
195,mezen,RU,65.8522,44.24,17.94,97,100,6.08
196,pali,IN,25.7667,73.3333,60.15,31,0,5.26
197,beringovskiy,RU,63.05,179.3167,8.35,95,100,7.07
198,collierville,US,35.042,-89.6645,43.0,49,1,6.91
199,tambovka,RU,50.0969,128.0489,-16.6,58,0,6.71
200,akyab,MM,20.15,92.9,59.79,64,0,7.2
201,wagar,SD,16.1525,36.2032,75.11,55,0,10.27
202,lubumbashi,CD,-11.6609,27.4794,64.4,94,100,2.21
203,vao,NC,-22.6667,167.4833,77.49,87,100,43.22
204,lavrentiya,RU,65.5833,-171.0,5.2,88,100,22.75
205,oktyabrskoye,RU,43.0645,44.7417,32.0,80,11,8.95
206,muros,ES,42.7762,-9.0603,57.99,84,100,8.99
207,new norfolk,AU,-42.7826,147.0587,57.0,70,99,1.57
208,broome,US,42.2506,-75.833,28.0,80,90,12.66
209,axim,GH,4.8699,-2.2405,80.01,84,8,7.76
210,guadalupe y calvo,MX,26.1,-106.9667,68.49,23,65,8.48
211,roquetas de mar,ES,36.7642,-2.6148,57.99,88,0,2.3
212,tongliao,CN,43.6125,122.2653,-12.59,82,0,8.84
213,narsaq,GL,60.9167,-46.05,24.8,68,75,8.05
214,nioro,GM,13.35,-15.75,85.03,12,0,2.59
215,chincholi,IN,17.4667,77.4333,67.01,27,0,9.04
216,contamana,PE,-7.3333,-75.0167,95.81,40,79,6.24
217,dingle,PH,10.9995,122.6711,73.85,92,100,7.96
218,davila,PH,18.4726,120.5763,73.4,73,20,5.75
219,pangnirtung,CA,66.1451,-65.7125,-22.0,63,20,1.59
220,altayskoye,RU,51.9533,85.3325,18.3,90,29,3.65
221,saint-georges,GD,12.0564,-61.7485,82.4,65,20,24.16
222,ballina,AU,-28.8667,153.5667,68.0,94,90,8.05
223,praia da vitoria,PT,38.7333,-27.0667,55.0,66,20,27.58
224,kupang,ID,-10.1667,123.5833,79.25,83,100,7.92
225,vardo,NO,70.3705,31.1107,24.8,93,90,24.16
226,sechura,PE,-5.5569,-80.8222,81.73,56,38,16.17
227,bodden town,KY,19.2833,-81.25,78.8,50,40,10.36
228,korla,CN,41.7597,86.1469,24.62,82,12,1.72
229,yatou,CN,37.15,122.3833,25.23,81,0,4.59
230,upington,ZA,-28.4478,21.2561,78.8,44,10,10.36
231,medicine hat,CA,50.0501,-110.6683,53.01,46,75,23.02
232,fez,MA,34.0372,-4.9998,57.2,77,0,3.44
233,ixtapa,MX,20.7,-105.2,75.2,78,75,9.22
234,havelock,US,34.8791,-76.9013,43.0,56,90,17.27
235,east london,ZA,-33.0153,27.9116,69.8,78,0,16.11
236,filingue,NE,14.3521,3.3168,74.84,15,0,6.82
237,las palmas,ES,28.4204,-14.0131,64.4,82,20,5.75
238,cidreira,BR,-30.1811,-50.2056,80.64,75,0,11.21
239,plettenberg bay,ZA,-34.0527,23.3716,69.98,69,0,3.27
240,pouebo,NC,-20.4,164.5667,72.64,84,100,6.6
241,hirara,JP,24.8,125.2833,64.13,75,81,24.65
242,kirksville,US,40.1948,-92.5833,35.01,74,1,3.44
243,bilibino,RU,68.0546,166.4372,-3.06,85,6,5.32
244,arlit,NE,18.7369,7.3853,70.59,20,0,10.63
245,macapa,BR,0.0389,-51.0664,86.0,79,75,4.61
246,yumen,CN,40.2833,97.2,26.37,66,100,10.98
247,puerto escondido,MX,15.85,-97.0667,86.0,70,1,6.91
248,dickinson,US,29.4608,-95.0513,64.0,41,1,6.91
249,inhambane,MZ,-23.865,35.3833,80.6,94,75,3.44
250,codrington,AU,-38.2667,141.9667,57.65,79,88,7.74
251,chipata,ZM,-13.6333,32.65,66.07,92,5,3.49
252,lengshuijiang,CN,27.6881,111.4294,47.39,89,28,1.57
253,hofn,IS,64.2539,-15.2082,32.47,92,100,15.9
254,oranjemund,NA,-28.55,16.4333,65.97,83,0,4.21
255,inta,RU,66.0317,60.1659,12.58,95,100,16.37
256,kurilsk,RU,45.2333,147.8833,16.47,88,100,30.49
257,bani,DO,18.2833,-70.3333,86.0,66,40,13.8
258,gola gokarannath,IN,28.0833,80.4667,54.0,55,0,4.99
259,nizhneangarsk,RU,55.7833,109.55,-22.65,74,0,2.33
260,cumpas,MX,29.9833,-109.7833,75.4,25,97,4.29
261,tura,IN,25.5198,90.2201,57.33,54,0,2.8
262,goulburn,AU,-34.75,149.7167,51.01,91,0,1.61
263,leningradskiy,RU,69.3833,178.4167,-3.37,88,100,21.45
264,kaitangata,NZ,-46.2817,169.8464,64.0,91,100,5.99
265,custodia,BR,-8.0875,-37.6431,90.86,27,63,12.62
266,otacilio costa,BR,-27.4831,-50.1219,77.94,84,39,0.94
267,kahului,US,20.8947,-156.47,75.2,69,20,2.15
268,wasco,US,35.5941,-119.341,70.0,36,1,4.61
269,sinop,TR,41.7711,34.8709,50.13,51,100,11.54
270,kununurra,AU,-15.7667,128.7333,77.0,100,75,9.22
271,nabire,ID,-3.3667,135.4833,75.34,87,100,2.93
272,madiun,ID,-7.6298,111.5239,74.39,92,93,0.65
273,beckley,US,37.7782,-81.1882,25.0,86,90,14.97
274,portobelo,PA,9.55,-79.65,89.01,64,15,5.99
275,clyde river,CA,70.4692,-68.5914,-29.2,68,40,5.75
276,issoire,FR,45.55,3.25,55.4,76,90,12.66
277,luau,AO,-10.7073,22.2247,66.99,96,100,3.98
278,airai,TL,-8.9266,125.4092,61.38,100,100,2.48
279,gavle,SE,60.6745,17.1417,23.0,81,100,8.99
280,nangal,IN,31.3667,76.3833,55.51,43,79,4.29
281,firozpur,IN,30.9167,74.6,51.8,87,40,5.26
282,mae sot,TH,16.7167,98.5667,65.03,53,0,0.87
283,sorland,NO,67.667,12.6934,28.4,69,75,13.8
284,kamariotissa,GR,40.4833,25.4667,53.6,94,20,6.15
285,longyearbyen,SJ,78.2186,15.6401,19.4,93,90,11.5
286,stromness,GB,58.965,-3.296,35.6,75,0,12.66
287,conil,FR,44.9673,3.7177,41.76,100,99,7.58
288,tsiroanomandidy,MG,-18.7667,46.0333,72.18,87,16,2.57
289,akom,CM,2.6678,12.7109,73.54,77,95,3.15
290,gilgit,PK,35.9221,74.3087,36.91,66,100,3.62
291,maceio,BR,-9.6658,-35.7353,84.2,65,40,5.75
292,urdoma,RU,61.7533,48.5442,18.73,96,100,8.63
293,owensboro,US,37.7742,-87.1133,35.6,64,90,12.66
294,enshi,CN,30.3,109.4833,44.1,77,19,0.74
295,uray,RU,60.1247,64.7758,7.74,96,49,4.36
296,riyadh,SA,24.6877,46.7219,66.2,24,0,8.05
297,green river,US,41.5286,-109.4662,35.6,48,1,4.61
298,tocopilla,CL,-22.092,-70.1979,73.08,45,78,5.79
299,lasa,IT,46.6166,10.7002,35.01,86,0,3.62
300,menongue,AO,-14.6585,17.691,65.43,75,100,3.15
301,araguari,BR,-18.6472,-48.1872,82.4,51,75,6.91
302,kanata,CA,45.3159,-75.8985,32.0,80,90,18.41
303,san javier,ES,37.8063,-0.8374,57.99,94,0,5.75
304,fernie,CA,49.5,-115.0687,37.4,75,100,6.91
305,belaya gora,RU,68.5333,146.4167,-21.35,87,97,5.82
306,huichapan,MX,20.3833,-99.65,66.2,34,40,7.43
307,lazaro cardenas,MX,17.9583,-102.2,83.48,58,0,10.36
308,lompoc,US,34.6391,-120.4579,62.01,67,1,3.44
309,lewistown,US,40.5992,-77.5714,30.99,80,90,9.22
310,mokshan,RU,53.4365,44.6132,25.0,68,100,7.74
311,solnechnyy,RU,50.7214,136.6319,-24.11,84,100,2.8
312,henties bay,NA,-22.116,14.2845,68.0,86,8,9.64
313,aklavik,CA,68.2191,-135.0107,-25.6,68,40,4.61
314,liverpool,GB,53.4106,-2.9779,46.99,100,75,10.36
315,irbil,IQ,36.1926,44.0106,42.8,87,0,2.3
316,tiznit,MA,29.5833,-9.5,67.55,53,100,1.32
317,vestmanna,FO,62.1564,-7.1664,33.8,93,40,8.05
318,montrose,US,38.4166,-108.2673,48.99,42,52,1.99
319,mnogovershinnyy,RU,53.9353,139.9242,-35.63,84,98,5.03
320,college,US,64.8569,-147.8028,-20.2,68,20,6.91
321,tuatapere,NZ,-46.1333,167.6833,60.08,82,100,3.33
322,nishihara,JP,26.1842,127.7558,60.8,54,20,8.05
323,susanville,US,40.4163,-120.653,44.6,61,20,8.05
324,letpadan,MM,17.7833,95.75,60.8,45,0,0.16
325,sisimiut,GL,66.9395,-53.6735,-5.49,82,0,12.08
326,mianyang,CN,31.4593,104.7542,48.0,70,100,2.8
327,luderitz,NA,-26.6481,15.1594,65.59,84,0,12.3
328,norman wells,CA,65.282,-126.8329,-18.4,76,90,16.11
329,pacasmayo,PE,-7.4006,-79.5714,74.68,67,4,14.09
330,san felipe,VE,10.3399,-68.7425,88.05,43,48,4.83
331,jiangyou,CN,31.7667,104.7167,47.59,71,100,0.49
332,khorixas,NA,-20.3667,14.9667,70.5,52,0,13.6
333,boyolangu,ID,-8.1181,111.8935,75.11,89,100,3.98
334,wawa,NG,9.9022,4.4192,82.26,19,1,2.24
335,visby,SE,57.6409,18.296,27.0,92,49,3.44
336,gonzalez,US,30.5816,-87.2914,55.0,32,1,13.8
337,lodja,CD,-3.4833,23.4333,72.97,78,81,2.19
338,new port richey,US,28.2442,-82.7193,53.01,69,0,8.99
339,lorengau,PG,-2.0226,147.2712,81.27,83,99,10.87
340,tautira,PF,-17.7333,-149.15,86.0,66,20,3.44
341,srednekolymsk,RU,67.45,153.6833,-29.16,81,36,1.43
342,kortkeros,RU,61.8106,51.5806,23.0,100,90,6.71
343,mokhsogollokh,RU,61.4681,128.9203,-38.49,80,100,7.63
344,port moresby,PG,-9.4431,147.1797,75.2,100,75,9.22
345,silver city,US,32.7701,-108.2803,64.0,27,1,4.61
346,shaki,AZ,41.0833,47.1667,42.8,100,90,5.75
347,tynda,RU,55.1667,124.7167,-37.17,76,67,4.29
348,langsa,ID,4.4683,97.9683,74.61,89,80,2.06
349,palembang,ID,-2.9167,104.7458,74.07,95,100,4.47
350,vostok,RU,46.4856,135.8833,-27.94,86,100,6.29
351,ilulissat,GL,69.2167,-51.1,-2.2,71,75,20.71
352,tacarigua,VE,10.0862,-67.9198,91.4,52,40,4.0
353,katsuura,JP,35.1333,140.3,42.8,49,0,4.61
354,mogok,MM,22.9167,96.5,53.01,53,0,1.77
355,kruisfontein,ZA,-34.0033,24.7314,69.01,81,0,1.01
356,qaqortoq,GL,60.7167,-46.0333,24.8,68,75,8.05
357,cajazeiras,BR,-6.8903,-38.5553,93.76,24,100,6.42
358,lima,PE,-12.0432,-77.0282,78.8,61,0,4.61
359,hudiksvall,SE,61.729,17.1036,12.4,96,100,10.27
360,fatehpur,IN,25.9333,80.8,55.24,50,19,3.6
361,thunder bay,CA,48.4001,-89.3168,28.99,59,20,5.75
362,petropavlovsk-kamchatskiy,RU,53.0452,158.6483,14.0,85,90,11.18
363,vangaindrano,MG,-23.35,47.6,78.06,88,48,5.82
364,belur,IN,13.1667,75.8667,63.3,63,0,7.83
365,ormara,PK,25.2088,64.6357,70.36,73,0,11.74
366,bandarbeyla,SO,9.4942,50.8122,73.65,69,21,17.11
367,gizo,SB,-8.103,156.8419,80.31,84,100,12.82
368,sao felix do xingu,BR,-6.6447,-51.995,84.02,80,86,4.0
369,fort nelson,CA,58.8053,-122.7002,-7.6,71,90,8.05
370,banawang,PH,14.6121,120.39,75.2,73,20,6.91
371,villacarrillo,ES,38.1156,-3.0848,45.7,87,0,0.69
372,malinyi,TZ,-8.9333,36.1333,72.41,92,0,1.59
373,huntington,US,38.4193,-82.4452,34.0,64,90,11.5
374,jabinyanah,TN,35.035,10.9081,62.6,51,20,3.44
375,helong,CN,42.5397,128.9972,-2.52,79,1,9.55
376,sukumo,JP,32.9333,132.7333,36.7,79,1,11.65
377,vallenar,CL,-28.5708,-70.7581,83.57,23,2,11.97
378,okhotsk,RU,59.3833,143.3,-21.59,85,100,12.17
379,freetown,SL,8.484,-13.2299,82.4,74,75,9.22
380,prince george,CA,53.9166,-122.753,17.01,85,90,9.22
381,guerrero negro,MX,27.9769,-114.0611,76.84,23,100,1.99
382,kambam,ID,5.2505,96.8629,77.9,82,100,5.28
383,posse,BR,-14.0931,-46.3694,81.77,57,88,1.68
384,yulara,AU,-25.2406,130.9889,77.0,33,34,6.91
385,konakovo,RU,56.7,36.7667,17.44,96,100,5.95
386,moindou,NC,-21.6924,165.677,69.8,94,75,20.71
387,luwuk,ID,-0.9516,122.7875,77.09,79,100,4.68
388,los llanos de aridane,ES,28.6585,-17.9182,66.2,77,90,11.5
389,puerto del rosario,ES,28.5004,-13.8627,64.4,82,20,5.75
390,chacabuco,AR,-34.6417,-60.4739,75.0,68,72,4.0
391,sur,OM,22.5667,59.5289,66.16,73,0,2.59
392,marienburg,PL,54.0359,19.0266,30.0,90,100,5.1
393,valea stanciului,RO,43.9833,23.8667,41.0,93,90,4.61
394,trojes,AL,41.756,19.962,46.4,93,0,2.95
395,buchanan,LR,5.8808,-10.0467,78.8,94,75,7.16
396,chhatak,BD,25.0333,91.6667,58.26,65,0,5.06
397,kristiansund,NO,63.1115,7.732,21.2,79,0,5.75
398,marystown,CA,47.1666,-55.1483,29.3,93,100,15.88
399,ixcatepec,MX,21.2,-97.95,68.9,62,2,6.29
400,concepcion del uruguay,AR,-32.4825,-58.2372,72.0,87,89,4.0
401,vanimo,PG,-2.6741,141.3028,78.03,85,100,9.48
402,santa rosa,PH,14.3122,121.1114,77.0,83,20,2.3
403,medyn,RU,54.9692,35.8586,3.2,85,100,5.08
404,sorong,ID,-0.8833,131.25,78.08,85,100,8.28
405,si bun ruang,TH,16.9667,102.2833,70.86,55,19,5.84
406,glenwood springs,US,39.5505,-107.3248,46.99,74,90,4.61
407,lagoa,PT,39.05,-27.9833,55.38,66,19,38.77
408,fallon,US,39.4735,-118.7774,55.4,38,40,14.97
409,fort saint james,CA,54.4333,-124.25,5.81,91,100,3.51
410,cayenne,GF,4.9333,-52.3333,78.8,94,75,11.5
411,methoni,GR,36.8197,21.7049,55.0,100,96,3.44
412,laurel,US,39.0993,-76.8483,35.6,93,90,12.66
413,mahibadhoo,MV,3.7833,72.9667,82.44,79,45,17.76
414,tateyama,JP,34.9833,139.8667,42.8,49,0,4.61
415,winnipeg,CA,49.8844,-97.147,25.0,74,100,2.3
416,tingo maria,PE,-9.2895,-76.0088,86.0,58,40,8.05
417,pervomayskaya,RU,43.4033,45.5261,32.0,93,68,4.47
418,robertsport,LR,6.7533,-11.3686,80.46,85,0,10.11
419,rosario,AR,-32.9468,-60.6393,75.2,64,75,5.75
420,staroutkinsk,RU,57.2302,59.3348,12.22,96,79,5.37
421,olga,RU,43.7444,135.2892,-6.32,76,6,13.96
422,kigoma,TZ,-4.8769,29.6267,73.9,78,62,2.93
423,gorontalo,ID,0.5412,123.0595,75.09,90,95,3.71
424,pascagoula,US,30.3658,-88.5561,54.0,35,1,6.91
425,dakar,SN,14.6937,-17.4441,69.8,78,0,9.22
426,talaya,RU,61.3833,152.75,-30.62,80,100,3.98
427,port-gentil,GA,-0.7193,8.7815,82.4,89,20,5.75
428,buraydah,SA,26.326,43.975,66.2,45,0,9.22
429,anchorage,US,61.2181,-149.9003,5.0,71,1,3.44
430,acapulco,MX,16.8634,-99.8901,86.0,58,1,4.61
431,eureka,US,40.8021,-124.1637,53.01,77,98,1.99
432,jaszszentlaszlo,HU,46.5668,19.7607,34.0,100,90,6.91
433,griffith,US,41.5284,-87.4237,33.01,64,90,11.5
434,camana,PE,-16.6228,-72.7111,74.98,63,43,8.79
435,shibetsu,JP,43.659,145.132,9.36,85,2,14.52
436,broken hill,AU,-31.95,141.4333,57.2,47,0,6.91
437,namatanai,PG,-3.6667,152.4333,76.78,90,100,16.8
438,batatais,BR,-20.8911,-47.585,89.6,43,20,6.91
439,nouadhibou,MR,20.931,-17.0347,68.0,83,0,14.97
440,haines junction,CA,60.7522,-137.5108,-20.2,76,96,1.5
441,vagur,FO,61.4732,-6.8119,40.1,72,0,28.05
442,moron,AR,-34.6534,-58.6198,81.0,58,92,1.99
443,sosnovo-ozerskoye,RU,52.5249,111.5418,-30.17,84,0,7.54
444,hammerfest,NO,70.6634,23.6821,24.8,68,40,12.66
445,garachine,PA,8.0647,-78.3628,83.28,74,45,6.87
446,iracoubo,GF,5.4802,-53.2011,78.78,84,85,16.17
447,sinnamary,GF,5.3833,-52.95,79.05,84,73,15.79
448,shadrinsk,RU,56.0852,63.6335,33.49,91,87,14.74
449,atagay,RU,55.1033,99.3875,4.86,91,100,3.27
450,lukow,PL,51.929,22.3796,37.99,51,100,9.73
451,vuktyl,RU,63.8567,57.3094,14.16,96,100,8.3
452,general roca,AR,-39.0333,-67.5833,84.2,26,0,3.44
453,kendari,ID,-3.945,122.4989,76.06,92,100,5.79
454,flinders,AU,-34.5833,150.8552,62.01,80,6,1.99
455,namibe,AO,-15.1961,12.1522,73.62,75,95,7.78
456,brae,GB,60.3964,-1.353,37.4,60,20,16.11
457,alice springs,AU,-23.7,133.8833,73.99,31,68,5.75
458,ayagoz,KZ,47.9714,80.4392,20.07,97,96,10.6
459,aykhal,RU,66.0,111.5,-30.77,82,100,10.25
460,vincennes,FR,48.85,2.4333,55.4,76,75,13.8
461,ciudad bolivar,VE,8.1222,-63.5497,92.68,33,71,8.16
462,ercis,TR,39.0287,43.3586,26.6,86,40,3.44
463,chatra,IN,24.2167,84.8667,50.0,81,0,2.66
464,faanui,PF,-16.4833,-151.75,81.16,76,23,14.18
465,asau,RO,46.4333,26.4,32.0,73,1,5.12
466,kavaratti,IN,10.5669,72.642,81.36,72,0,5.55
467,verkhoyansk,RU,67.5447,133.385,-35.37,80,100,3.44
468,sidhauli,IN,27.2833,80.8333,57.2,94,0,3.18
469,birao,CF,10.2849,22.7882,80.38,20,0,4.18
470,mocuba,MZ,-16.8392,36.9856,76.05,96,31,3.44
471,adrar,MR,20.5022,-10.0711,74.5,19,83,8.34
472,katherine,AU,-14.4667,132.2667,78.8,89,81,4.61
473,port blair,IN,11.6667,92.75,76.44,80,0,11.23
474,san jose de las lajas,CU,22.9614,-82.1511,69.8,52,75,14.97
475,punta alta,AR,-38.8759,-62.0736,75.07,45,25,14.18
476,kushmurun,KZ,52.4503,64.6311,29.48,97,100,18.07
477,yerbogachen,RU,61.2767,108.0108,-37.17,81,10,3.91
478,butia,BR,-30.1197,-51.9622,83.05,80,21,5.75
479,mehamn,NO,71.0357,27.8492,24.8,80,90,24.16
480,komsomolskiy,UZ,40.4272,71.7189,39.2,60,33,6.91
481,belogorsk,RU,50.9158,128.4611,-27.71,82,69,7.05
482,da nang,VN,16.0678,108.2208,69.8,88,75,1.97
483,marsabit,KE,2.3284,37.9899,72.77,45,61,14.32
484,biltine,TD,14.5333,20.9167,75.81,17,0,9.84
485,cedar city,US,37.6775,-113.0619,51.8,50,1,20.71
486,providencia,MX,28.7167,-111.5833,75.0,44,100,1.99
487,grindavik,IS,63.8424,-22.4338,35.6,60,75,25.32
488,douentza,ML,14.9951,-2.9517,68.79,18,0,4.25
489,coronado,US,32.6859,-117.1831,69.01,72,75,10.36
490,high rock,BS,26.6208,-78.2833,60.8,48,40,21.85
491,jieshi,CN,22.8134,115.8257,58.44,76,2,20.24
492,sheksna,RU,59.21,38.5107,24.8,93,90,6.71
493,lashio,MM,22.9333,97.75,48.85,55,0,1.97
494,lazne bohdanec,CZ,50.0756,15.6798,43.0,93,75,6.91
495,sao jose da coroa grande,BR,-8.8978,-35.1478,80.64,71,3,11.07
496,terrasini,IT,38.146,13.0844,53.6,87,20,6.91
497,iqaluit,CA,63.7506,-68.5145,-18.4,63,75,5.75
498,umm lajj,SA,25.0213,37.2685,74.8,76,0,5.46
499,sayyan,YE,15.1718,44.3244,45.21,53,16,4.18
500,beyneu,KZ,45.3167,55.2,41.45,63,81,14.34
501,simao,CN,22.7886,100.9748,49.84,87,68,1.07
502,salaya,IN,22.3167,69.6,69.98,56,65,5.46
503,choix,MX,26.7092,-108.3219,87.66,21,100,5.39
504,kovdor,RU,67.5662,30.4758,5.58,95,38,3.09
505,havoysund,NO,70.9963,24.6622,28.4,69,75,31.07
506,coahuayana,MX,18.7333,-103.6833,90.45,40,3,7.76
507,karimnagar,IN,18.4333,79.15,63.91,27,0,0.85
508,port augusta,AU,-32.5,137.7667,62.6,67,0,5.75
509,corbu,RO,44.3833,28.65,41.0,100,90,1.14
510,dunedin,NZ,-45.8742,170.5036,60.01,90,50,1.99
511,harper,LR,4.375,-7.7169,78.8,88,4,5.35
512,north bend,US,43.4065,-124.2243,51.8,71,20,10.36
513,laguna,US,38.421,-121.4238,55.0,94,40,5.75
514,souillac,MU,-20.5167,57.5167,80.6,78,40,11.5
515,manta,EC,-0.95,-80.7333,82.4,74,75,6.91
516,west wendover,US,40.7391,-114.0733,37.4,65,1,4.61
517,boli,CN,45.7667,130.5167,-11.2,82,66,12.39
518,luanda,AO,-8.8368,13.2343,82.4,69,20,6.91
519,meulaboh,ID,4.1363,96.1285,76.8,86,54,4.47
520,tiksi,RU,71.6872,128.8694,-0.67,93,100,15.43
521,port hardy,CA,50.6996,-127.4199,41.0,93,75,4.61
522,dudinka,RU,69.4058,86.1778,-4.2,92,100,9.24
523,balad,IQ,34.0164,44.1453,56.17,48,34,8.97
524,rio grande,BR,-32.035,-52.0986,87.8,62,20,11.5
525,tahta,EG,26.7693,31.5021,64.4,32,0,6.91
526,vila,PT,42.0304,-8.1588,52.0,96,100,20.0
527,itoman,JP,26.1247,127.6694,60.8,55,20,16.11
528,mount isa,AU,-20.7333,139.5,77.0,83,43,3.44
529,russellville,US,35.2784,-93.1338,44.6,53,1,3.44
530,freeport,US,40.6576,-73.5832,34.0,86,90,14.97
531,tongchuan,CN,35.0806,109.0897,35.28,71,0,3.29
532,saint-leu,RE,-21.15,55.2833,80.6,78,0,4.61
533,bethel,US,41.3712,-73.414,32.0,86,90,10.36
534,lubango,AO,-14.9172,13.4925,63.97,79,85,2.19
535,churapcha,RU,62.0025,132.4325,-43.58,80,100,3.51
536,madrid,ES,40.4165,-3.7026,54.0,82,75,8.05
537,nogliki,RU,51.8333,143.1667,-23.78,81,100,12.26
538,conde,BR,-7.2597,-34.9075,86.0,62,40,13.8
539,soe,ID,-9.8607,124.284,68.58,94,98,3.65
540,pyaozerskiy,RU,65.8333,31.1667,4.14,93,0,3.11
541,westlock,CA,54.1502,-113.8688,6.8,85,100,11.5
542,roebourne,AU,-20.7833,117.1333,81.03,82,43,13.78
543,plainview,US,40.7765,-73.4673,35.01,86,90,14.97
544,kutum,SD,14.2,24.6667,70.52,23,45,6.13
545,soja,JP,34.6667,133.75,39.99,66,2,8.97
546,plerin,FR,48.5425,-2.7798,53.01,82,90,13.8
547,nantucket,US,41.2835,-70.0995,41.0,100,90,21.85
548,bang rakam,TH,16.7585,100.1174,84.99,69,18,1.88
549,emerald,AU,-23.5333,148.1667,77.0,73,98,9.22
550,iquitos,PE,-3.7481,-73.2472,86.0,70,75,8.05
551,camanducaia,BR,-22.7553,-46.1447,87.8,48,75,14.97
552,kangasala,FI,61.4638,24.076,10.4,85,75,6.91
553,severodvinsk,RU,64.5635,39.8302,14.0,92,90,8.95
554,isoka,ZM,-10.1606,32.6335,63.97,93,30,1.36
555,linxia,CN,35.6003,103.2064,27.43,68,95,2.75
556,galesong,ID,-5.3166,119.3661,75.2,100,20,5.75
557,la rioja,ES,42.25,-2.5,51.8,76,20,2.3
558,vysokogornyy,RU,50.1167,139.15,-32.06,81,100,3.96
559,pochutla,MX,15.7432,-96.4661,87.8,55,1,12.66
560,biak,ID,-0.9131,122.8766,75.78,85,100,7.85
561,acari,PE,-15.4311,-74.6158,81.03,48,44,11.61
562,port lincoln,AU,-34.7333,135.8667,60.1,86,47,11.68
563,gamba,GA,-2.65,10.0,78.3,84,5,6.55
564,myitkyina,MM,25.3833,97.4,55.85,55,0,2.62
565,sciacca,IT,37.5082,13.0881,48.99,96,1,1.99
566,saravan,AM,39.7196,45.6483,32.0,86,4,2.64
567,fuerte olimpo,PY,-21.0415,-57.8738,96.87,40,39,6.22
568,bonfim,BR,3.0833,-59.95,86.0,66,40,13.8
569,tamiahua,MX,21.2667,-97.45,69.49,64,0,6.87
570,kapoeta,SS,4.7717,33.5903,83.25,29,0,9.24
571,shizilu,CN,35.1711,118.8289,29.19,94,0,5.14
572,makakilo city,US,21.3469,-158.0858,71.6,88,75,3.44
573,mercedes,AR,-34.6515,-59.4307,75.0,73,100,4.0
574,khakhea,BW,-24.6895,23.494,67.95,90,100,6.49
575,taft,IR,31.7471,54.2088,44.6,26,0,2.3
576,mongo,TD,12.1844,18.693,76.24,18,0,7.94
577,presidencia roque saenz pena,AR,-26.7852,-60.4388,82.99,85,77,1.99
578,jumla,NP,29.2747,82.1838,33.69,77,0,3.33
579,anadyr,RU,64.75,177.4833,14.0,79,75,11.18
580,emba,KZ,48.8264,58.1442,33.51,97,100,14.45
581,olinda,BR,-8.0089,-34.8553,82.4,61,20,10.36
582,normal,US,40.5142,-88.9906,30.2,80,20,11.5
583,thaba-tseka,LS,-29.522,28.6084,52.9,86,100,1.34
584,aktau,KZ,43.65,51.2,35.6,93,0,8.95
585,san miguel acatan,GT,15.7,-91.6167,71.6,49,20,4.27
586,ngunguru,NZ,-35.6167,174.5,64.0,85,27,3.0
587,ahipara,NZ,-35.1667,173.1667,65.5,73,0,2.13
588,dunnville,CA,42.9001,-79.6163,30.99,59,100,13.8
589,cleburne,US,32.3476,-97.3867,64.0,27,1,11.5
590,lata,PT,40.1629,-8.3327,57.99,93,100,4.0
591,udaipur,IN,24.5712,73.6918,61.59,29,56,3.36
592,roald,NO,62.5833,6.1333,23.0,80,0,6.91
